[{"img":"assets/restaurant_photos/food1.jpeg","title":"Happy Jones1","address":"1278 Loving Acres RoadKansas City, MO 64110","rating":"4.5"},{"img":"assets/restaurant_photos/food2.jpeg","title":"Uncle Boons2","address":"1278 Loving Acres RoadKansas City, MO 64110","rating":"4.5"},{"img":"assets/restaurant_photos/food3.jpeg","title":"Happy Jones3","address":"1278 Loving Acres RoadKansas City, MO 64110","rating":"4.5"},{"img":"assets/restaurant_photos/food4.jpeg","title":"Uncle Boons4","address":"1278 Loving Acres RoadKansas City, MO 64110","rating":"4.5"},{"img":"assets/restaurant_photos/food5.jpeg","title":"Happy Jones5","address":"1278 Loving Acres RoadKansas City, MO 64110","rating":"4.5"},{"img":"assets/restaurant_photos/food6.jpeg","title":"Happy Jones6","address":"1278 Loving Acres RoadKansas City, MO 64110","rating":"4.5"},{"img":"assets/restaurant_photos/food7.jpeg","title":"Happy Jones7","address":"1278 Loving Acres RoadKansas City, MO 64110","rating":"4.5"},{"img":"assets/restaurant_photos/food8.jpeg","title":"Happy Jones8","address":"1278 Loving Acres RoadKansas City, MO 64110","rating":"4.5"},{"img":"assets/restaurant_photos/food9.jpeg","title":"Happy Jones9","address":"1278 Loving Acres RoadKansas City, MO 64110","rating":"4.5"},{"adminName":"GerDC","adminPassword":"12345","img":"assets/restaurant_photos/food7.jpeg","title":"Pizzeria Joya","address":"Calle Primavera 24, Montevideo, Uruguay","foodType":"Pizzeria Uruguaya","openingTime":"11:00","closingTime":"00:00"},{"adminName":"lucas","adminPassword":"12345","img":"assets/restaurant_photos/food11.jpeg","title":"Lucas's bar","address":"Dr.-Gessler-Strasse 15","foodType":"Mexican","openingTime":"11:00","closingTime":"02:00"},{"adminName":"lucas","adminPassword":"12345","img":"assets/restaurant_photos/food11.jpeg","title":"Lucas's bar","address":"Dr.-Gessler-Strasse 15","foodType":"Mexican","openingTime":"11:00","closingTime":"02:00"},{"adminName":"asdf","adminPassword":"asd","img":"assets/restaurant_photos/food2.jpeg","title":"af","address":"Dr.-Gessler-Strasse 15","foodType":"Nigerian","openingTime":"2:07 AM","closingTime":"10:00 PM","latitude":"0.0","longitude":"0.0"},{"adminName":"asdf","adminPassword":"asd","img":"assets/restaurant_photos/food2.jpeg","title":"af","address":"Dr.-Gessler-Strasse 15","foodType":"Nigerian","openingTime":"2:07 AM","closingTime":"10:00 PM","latitude":"0.0","longitude":"0.0"},{"adminName":"b","adminPassword":"vhj","img":"assets/restaurant_photos/food2.jpeg","title":"Netto","address":"Dr.-Gessler-Strasse 15","foodType":"Chinese","openingTime":"2:11 AM","closingTime":"2:11 PM","latitude":"0.0","longitude":"0.0"},{"adminName":"b","adminPassword":"vhj","img":"assets/restaurant_photos/food2.jpeg","title":"Netto","address":"Dr.-Gessler-Strasse 15","foodType":"Chinese","openingTime":"2:11 AM","closingTime":"2:11 PM","latitude":"0.0","longitude":"0.0"},{"adminName":"ftgf","adminPassword":"dgfq","img":"","title":"dfg","address":"Dr.-Gessler-Strasse 15B","foodType":"Nigerian","openingTime":"2:13 AM","closingTime":"2:13 PM","latitude":"0.0","longitude":"0.0"},{"adminName":"as","adminPassword":"adsf","img":"","title":"asd","address":"Dr.-Gessler-Strasse 15B","foodType":"Italian","openingTime":"5:14 AM","closingTime":"2:14 PM","latitude":"0.0","longitude":"0.0"},{"adminName":"t","adminPassword":"fgyq","img":"","title":"d","address":"Dr.-Gessler-Strasse 15B","foodType":"Nigerian","openingTime":"2:15 AM","closingTime":"2:15 PM","latitude":"0.0","longitude":"0.0"},{"adminName":"t","adminPassword":"fgyq","img":"","title":"d","address":"Dr.-Gessler-Strasse 15B, Regensburg","foodType":"Nigerian","openingTime":"2:15 AM","closingTime":"2:15 PM","latitude":"0.0","longitude":"0.0"}]